{
  "instituciones": [
    {
      "id": "edu-001",
      "nombre": "Escuela N° 1 \"Juan Pascual Pringles\"",
      "tipo": "educativa",
      "lat": -33.6796,
      "lng": -65.4565,
      "direccion": "San Martín 650, Villa Mercedes",
      "telefono": "02657-420123",
      "primario": true,
      "secundario": false,
      "adultos": false,
      "turno_manana": true,
      "turno_tarde": true,
      "turno_noche": false
    },
    {
      "id": "edu-002",
      "nombre": "IPEM N° 12 \"Libertador San Martín\"",
      "tipo": "educativa",
      "lat": -33.6735,
      "lng": -65.4602,
      "direccion": "Av. Mitre 1230, Villa Mercedes",
      "telefono": "02657-421456",
      "primario": false,
      "secundario": true,
      "adultos": true,
      "turno_manana": true,
      "turno_tarde": false,
      "turno_noche": true
    },
    {
      "id": "edu-003",
      "nombre": "Escuela Normal \"Paula D. de Bazán\"",
      "tipo": "educativa",
      "lat": -33.6712,
      "lng": -65.4521,
      "direccion": "9 de Julio 845, Villa Mercedes",
      "telefono": "02657-422789",
      "primario": true,
      "secundario": true,
      "adultos": false,
      "turno_manana": true,
      "turno_tarde": true,
      "turno_noche": false
    },
    {
      "id": "edu-004",
      "nombre": "CENMA Villa Mercedes (Centro Educativo de Nivel Medio para Adultos)",
      "tipo": "educativa",
      "lat": -33.6770,
      "lng": -65.4480,
      "direccion": "Belgrano 410, Villa Mercedes",
      "telefono": "02657-423012",
      "primario": false,
      "secundario": true,
      "adultos": true,
      "turno_manana": false,
      "turno_tarde": false,
      "turno_noche": true
    },
    {
      "id": "edu-005",
      "nombre": "Jardín de Infantes N° 3",
      "tipo": "educativa",
      "lat": -33.6820,
      "lng": -65.4615,
      "direccion": "Pedernera 320, Villa Mercedes",
      "telefono": "02657-424567",
      "primario": true,
      "secundario": false,
      "adultos": false,
      "turno_manana": true,
      "turno_tarde": true,
      "turno_noche": false
    },
    {
      "id": "cul-001",
      "nombre": "Centro Cultural Municipal",
      "tipo": "cultural",
      "lat": -33.6745,
      "lng": -65.4540,
      "direccion": "Av. Illia 560, Villa Mercedes",
      "telefono": "02657-430111",
      "email": "culturamercedes@villamercedes.gob.ar",
      "edades": "Todas las edades",
      "horarios": "Lunes a viernes 9:00-21:00, sábados 9:00-13:00",
      "actividades": "Talleres de teatro, música, artes visuales, biblioteca pública"
    },
    {
      "id": "cul-002",
      "nombre": "Casa de la Cultura \"Manuel Antonio Sáenz\"",
      "tipo": "cultural",
      "lat": -33.6701,
      "lng": -65.4490,
      "direccion": "Constitución 712, Villa Mercedes",
      "telefono": "02657-431222",
      "email": "casacultura@villamercedes.gob.ar",
      "edades": "A partir de 6 años",
      "horarios": "Martes a sábado 10:00-20:00",
      "actividades": "Talleres de danza, pintura, exposiciones temporales"
    },
    {
      "id": "cul-003",
      "nombre": "Biblioteca Popular \"Mariano Moreno\"",
      "tipo": "cultural",
      "lat": -33.6788,
      "lng": -65.4498,
      "direccion": "Mitre 980, Villa Mercedes",
      "telefono": "02657-432333",
      "email": "bibliotecamoreno@gmail.com",
      "edades": "Todas las edades",
      "horarios": "Lunes a viernes 8:00-19:00",
      "actividades": "Préstamo de libros, sala de lectura, club de lectura infantil"
    },
    {
      "id": "cul-004",
      "nombre": "Conservatorio de Música \"Carlos Guastavino\"",
      "tipo": "cultural",
      "lat": -33.6755,
      "lng": -65.4615,
      "direccion": "Lavalle 230, Villa Mercedes",
      "telefono": "02657-433444",
      "email": "conservatorio@villamercedes.gob.ar",
      "edades": "Desde 8 años",
      "horarios": "Lunes a viernes 14:00-21:00",
      "actividades": "Clases de instrumentos, coro, teoría musical"
    }
  ]
}
